<?xml version='1.0' encoding='UTF-8'?>
<cities>
<city><cityName>Brescia</cityName><country>Italy</country><latitude>45.4969452</latitude><longitude>10.2740428</longitude></city><city><cityName>Nakhchivan</cityName><country>Azerbaijan</country><latitude>39.3256814</latitude><longitude>45.4912648</longitude></city><city><cityName>Paprotnia</cityName><country>Poland</country><latitude>52.2902011</latitude><longitude>22.4724915</longitude></city><city><cityName>Dar Chabanne</cityName><country>Tunisia</country><latitude>36.4626965</latitude><longitude>10.7492466</longitude></city><city><cityName>Hollola</cityName><country>Finland</country><latitude>61.0031692</latitude><longitude>25.3947277</longitude></city><city><cityName>Semalang</cityName><country>Indonesia</country><latitude>-7.0051453</latitude><longitude>110.4381254</longitude></city><city><cityName>Salimbao</cityName><country>Philippines</country><latitude>7.2225</latitude><longitude>124.25333</longitude></city><city><cityName>Espanola</cityName><country>Canada</country><latitude>46.2657181</latitude><longitude>-81.771057</longitude></city><city><cityName>Chuzhou</cityName><country>China</country><latitude>32.253425</latitude><longitude>118.328321</longitude></city><city><cityName>Agbani</cityName><country>Nigeria</country><latitude>6.3049636</latitude><longitude>7.5626411</longitude></city><city><cityName>Colonia Mauricio José Troche</cityName><country>Paraguay</country><latitude>-25.6177713</latitude><longitude>-56.2817585</longitude></city><city><cityName>Dajianchang</cityName><country>China</country><latitude>39.472463</latitude><longitude>117.091582</longitude></city><city><cityName>Xinchengzi</cityName><country>China</country><latitude>34.26645</latitude><longitude>108.960747</longitude></city><city><cityName>Sundsvall</cityName><country>Sweden</country><latitude>63.0040018</latitude><longitude>16.6737805</longitude></city><city><cityName>Nasavrky</cityName><country>Czech Republic</country><latitude>50.025483</latitude><longitude>16.2590848</longitude></city><city><cityName>Barda</cityName><country>Azerbaijan</country><latitude>40.3706555</latitude><longitude>47.1378909</longitude></city><city><cityName>Fovissste</cityName><country>Mexico</country><latitude>18.3558066</latitude><longitude>-99.87075</longitude></city><city><cityName>Gunung Sugih</cityName><country>Indonesia</country><latitude>-4.9942171</latitude><longitude>105.2077798</longitude></city><city><cityName>Dumaguete</cityName><country>Philippines</country><latitude>14.6511524</latitude><longitude>121.0314508</longitude></city><city><cityName>Trbovlje</cityName><country>Slovenia</country><latitude>46.1503563</latitude><longitude>15.0453137</longitude></city><city><cityName>Kota Bharu</cityName><country>Malaysia</country><latitude>6.1097207</latitude><longitude>102.2462087</longitude></city><city><cityName>Fernandópolis</cityName><country>Brazil</country><latitude>-20.2810232</latitude><longitude>-50.2475804</longitude></city><city><cityName>Mayrtup</cityName><country>Russia</country><latitude>43.2020428</latitude><longitude>46.134662</longitude></city><city><cityName>Laguna Paiva</cityName><country>Argentina</country><latitude>-43.2596246</latitude><longitude>-65.3580411</longitude></city><city><cityName>Mosquera</cityName><country>Colombia</country><latitude>4.6802367</latitude><longitude>-74.2296713</longitude></city><city><cityName>Phichit</cityName><country>Thailand</country><latitude>14.5302201</latitude><longitude>100.9192009</longitude></city><city><cityName>Montpellier</cityName><country>France</country><latitude>43.6218385</latitude><longitude>3.8403455</longitude></city><city><cityName>Sabang</cityName><country>Philippines</country><latitude>14.347522</latitude><longitude>120.9245309</longitude></city><city><cityName>Haradzishcha</cityName><country>Belarus</country><latitude>53.3269782</latitude><longitude>26.0063137</longitude></city><city><cityName>San Nicolas</cityName><country>Philippines</country><latitude>13.9300945</latitude><longitude>120.9522977</longitude></city><city><cityName>Suzdal’</cityName><country>Russia</country><latitude>56.4191591</latitude><longitude>40.4536153</longitude></city><city><cityName>Dordrecht</cityName><country>Netherlands</country><latitude>51.792865</latitude><longitude>4.6999899</longitude></city><city><cityName>Aracruz</cityName><country>Brazil</country><latitude>-19.8205316</latitude><longitude>-40.2768213</longitude></city><city><cityName>Pantang</cityName><country>China</country><latitude>34.16171</latitude><longitude>117.3247325</longitude></city><city><cityName>Fort-de-France</cityName><country>Martinique</country><latitude>14.641514</latitude><longitude>-61.0512822</longitude></city><city><cityName>Korosten’</cityName><country>Ukraine</country><latitude>50.9532135</latitude><longitude>28.6457544</longitude></city><city><cityName>Bantarpanjang</cityName><country>Indonesia</country><latitude>-6.3034502</latitude><longitude>106.4563567</longitude></city><city><cityName>Auray</cityName><country>France</country><latitude>47.666899</latitude><longitude>-3.022273</longitude></city><city><cityName>Zhongwei</cityName><country>China</country><latitude>37.499972</latitude><longitude>105.196902</longitude></city><city><cityName>Morales</cityName><country>Guatemala</country><latitude>15.475069</latitude><longitude>-88.826313</longitude></city><city><cityName>Banakaja</cityName><country>Indonesia</country><latitude>-6.9758</latitude><longitude>113.8009</longitude></city><city><cityName>Gandu</cityName><country>Indonesia</country><latitude>-7.9211147</latitude><longitude>111.4946618</longitude></city><city><cityName>Sangumata</cityName><country>Indonesia</country><latitude>-9.4033</latitude><longitude>119.5606</longitude></city><city><cityName>Fada</cityName><country>Chad</country><latitude>17.193029</latitude><longitude>21.58589</longitude></city><city><cityName>Songkhla</cityName><country>Thailand</country><latitude>7.1864095</latitude><longitude>100.5927222</longitude></city><city><cityName>Talavera</cityName><country>Philippines</country><latitude>14.6055216</latitude><longitude>121.1174129</longitude></city><city><cityName>Yushu</cityName><country>China</country><latitude>32.993106</latitude><longitude>97.008784</longitude></city><city><cityName>Teresita</cityName><country>Philippines</country><latitude>14.3082674</latitude><longitude>120.9138589</longitude></city><city><cityName>Zishan</cityName><country>China</country><latitude>24.922044</latitude><longitude>118.223965</longitude></city><city><cityName>Amānzī</cityName><country>Afghanistan</country><latitude>30.210884</latitude><longitude>66.048012</longitude></city><city><cityName>Kez</cityName><country>Russia</country><latitude>57.903389</latitude><longitude>53.715125</longitude></city><city><cityName>Berlín</cityName><country>Honduras</country><latitude>14.84276</latitude><longitude>-88.493797</longitude></city><city><cityName>Chengzhong</cityName><country>China</country><latitude>24.315499</latitude><longitude>109.410683</longitude></city><city><cityName>Maguan</cityName><country>China</country><latitude>23.012915</latitude><longitude>104.394157</longitude></city><city><cityName>Bandhagen</cityName><country>Sweden</country><latitude>59.2643041</latitude><longitude>18.0399695</longitude></city><city><cityName>Madamba</cityName><country>Philippines</country><latitude>7.834501</latitude><longitude>124.106681</longitude></city><city><cityName>Bene 'Ayish</cityName><country>Israel</country><latitude>31.790235</latitude><longitude>34.759291</longitude></city><city><cityName>Kopen</cityName><country>Indonesia</country><latitude>-7.5749752</latitude><longitude>110.6317907</longitude></city><city><cityName>Baranowo</cityName><country>Poland</country><latitude>53.175543</latitude><longitude>21.296838</longitude></city><city><cityName>Ludishan</cityName><country>China</country><latitude>29.00431</latitude><longitude>111.742951</longitude></city><city><cityName>Wleń</cityName><country>Poland</country><latitude>51.0176058</latitude><longitude>15.677587</longitude></city><city><cityName>Pacaembu</cityName><country>Brazil</country><latitude>-21.563131</latitude><longitude>-51.2658432</longitude></city><city><cityName>Parchal</cityName><country>Portugal</country><latitude>37.1356467</latitude><longitude>-8.5174744</longitude></city><city><cityName>Phra Pradaeng</cityName><country>Thailand</country><latitude>13.6532561</latitude><longitude>100.5633676</longitude></city><city><cityName>Dishnā</cityName><country>Egypt</country><latitude>26.1218315</latitude><longitude>32.4715312</longitude></city><city><cityName>Ké-Macina</cityName><country>Mali</country><latitude>13.96284</latitude><longitude>-5.3599355</longitude></city><city><cityName>Klirou</cityName><country>Cyprus</country><latitude>35.0211643</latitude><longitude>33.1773203</longitude></city><city><cityName>Losino-Petrovskiy</cityName><country>Russia</country><latitude>55.868922</latitude><longitude>38.2017201</longitude></city><city><cityName>Fushan</cityName><country>China</country><latitude>23.021478</latitude><longitude>113.121435</longitude></city><city><cityName>Palmas de Monte Alto</cityName><country>Brazil</country><latitude>-14.1500098</latitude><longitude>-43.2521507</longitude></city><city><cityName>Bettendorf</cityName><country>Luxembourg</country><latitude>49.8788895</latitude><longitude>6.1878416</longitude></city><city><cityName>Oslo</cityName><country>Norway</country><latitude>59.9047305</latitude><longitude>10.7670564</longitude></city><city><cityName>Parapat</cityName><country>Indonesia</country><latitude>2.6644279</latitude><longitude>98.9397139</longitude></city><city><cityName>Ust’-Abakan</cityName><country>Russia</country><latitude>53.8354447</latitude><longitude>91.3960432</longitude></city><city><cityName>Quixadá</cityName><country>Brazil</country><latitude>-4.9684385</latitude><longitude>-39.0161259</longitude></city><city><cityName>Menlou’ao</cityName><country>China</country><latitude>28.505971</latitude><longitude>113.329871</longitude></city><city><cityName>Penedo</cityName><country>Portugal</country><latitude>41.8345433</latitude><longitude>-8.5504434</longitude></city><city><cityName>Katav-Ivanovsk</cityName><country>Russia</country><latitude>54.7674474</latitude><longitude>58.2897934</longitude></city><city><cityName>El Retiro</cityName><country>Colombia</country><latitude>6.060955</latitude><longitude>-75.502582</longitude></city><city><cityName>Rączna</cityName><country>Poland</country><latitude>50.0398933</latitude><longitude>19.7289065</longitude></city><city><cityName>Balete</cityName><country>Philippines</country><latitude>14.5424287</latitude><longitude>121.0343936</longitude></city><city><cityName>Heshang</cityName><country>China</country><latitude>25.941708</latitude><longitude>119.560304</longitude></city><city><cityName>Bayog</cityName><country>Philippines</country><latitude>7.9582714</latitude><longitude>123.0531165</longitude></city><city><cityName>Bārkhān</cityName><country>Pakistan</country><latitude>30.1738031</latitude><longitude>69.9069312</longitude></city><city><cityName>Shuikou</cityName><country>China</country><latitude>26.319938</latitude><longitude>113.810157</longitude></city><city><cityName>Stockholm</cityName><country>Sweden</country><latitude>47.0163969</latitude><longitude>-68.1430029</longitude></city><city><cityName>Tuopu Luke</cityName><country>China</country><latitude>41.0233069</latitude><longitude>80.2697382</longitude></city><city><cityName>Kara-Balta</cityName><country>Kyrgyzstan</country><latitude>42.8212455</latitude><longitude>73.8536683</longitude></city><city><cityName>Halton</cityName><country>United Kingdom</country><latitude>53.800245</latitude><longitude>-1.48003</longitude></city><city><cityName>Salamanca</cityName><country>Philippines</country><latitude>14.5655902</latitude><longitude>121.0288144</longitude></city><city><cityName>Três Pontas</cityName><country>Brazil</country><latitude>-21.3699248</latitude><longitude>-45.5113164</longitude></city><city><cityName>Sepīdān</cityName><country>Iran</country><latitude>30.0450571</latitude><longitude>52.2762322</longitude></city><city><cityName>Azteca</cityName><country>Mexico</country><latitude>23.7426988</latitude><longitude>-99.1054986</longitude></city><city><cityName>Wonorejo</cityName><country>Indonesia</country><latitude>-7.305958</latitude><longitude>112.8135304</longitude></city><city><cityName>Batuidu</cityName><country>Indonesia</country><latitude>-10.6235959</latitude><longitude>123.409084</longitude></city><city><cityName>Rio Negrinho</cityName><country>Brazil</country><latitude>-26.424537</latitude><longitude>-49.5483671</longitude></city><city><cityName>Songdong</cityName><country>China</country><latitude>35.8939566</latitude><longitude>117.9249002</longitude></city><city><cityName>Baabda</cityName><country>Lebanon</country><latitude>33.833797</latitude><longitude>35.544145</longitude></city><city><cityName>Anping</cityName><country>China</country><latitude>38.234501</latitude><longitude>115.519278</longitude></city><city><cityName>Pregrada</cityName><country>Croatia</country><latitude>46.1649072</latitude><longitude>15.7509093</longitude></city><city><cityName>Arbois</cityName><country>France</country><latitude>43.4903429</latitude><longitude>5.3378155</longitude></city><city><cityName>Lhari</cityName><country>China</country><latitude>30.640814</latitude><longitude>93.232528</longitude></city><city><cityName>Ruokolahti</cityName><country>Finland</country><latitude>61.8628073</latitude><longitude>29.2775676</longitude></city><city><cityName>Purbalingga</cityName><country>Indonesia</country><latitude>-7.3058578</latitude><longitude>109.4259114</longitude></city><city><cityName>Alua</cityName><country>Philippines</country><latitude>15.3097361</latitude><longitude>120.8940375</longitude></city><city><cityName>Chamni</cityName><country>Thailand</country><latitude>13.5776734</latitude><longitude>100.6149501</longitude></city><city><cityName>Lidköping</cityName><country>Sweden</country><latitude>58.5023638</latitude><longitude>13.1702373</longitude></city><city><cityName>Siumate</cityName><country>Indonesia</country><latitude>-9.8415</latitude><longitude>123.6933</longitude></city><city><cityName>Jiangtun</cityName><country>China</country><latitude>31.920658</latitude><longitude>120.284938</longitude></city><city><cityName>Jieting</cityName><country>China</country><latitude>29.641685</latitude><longitude>120.273991</longitude></city><city><cityName>Ciengang</cityName><country>Indonesia</country><latitude>-7.0181673</latitude><longitude>107.0007987</longitude></city><city><cityName>Wailang</cityName><country>China</country><latitude>30.786657</latitude><longitude>108.761889</longitude></city><city><cityName>Pursat</cityName><country>Cambodia</country><latitude>12.4651824</latitude><longitude>103.8911999</longitude></city><city><cityName>Burujul</cityName><country>Indonesia</country><latitude>-6.8754582</latitude><longitude>108.1308481</longitude></city><city><cityName>Niort</cityName><country>France</country><latitude>46.3194856</latitude><longitude>-0.4546217</longitude></city><city><cityName>Semënovskoye</cityName><country>Russia</country><latitude>55.5146696</latitude><longitude>35.8272389</longitude></city><city><cityName>Rybnoye</cityName><country>Russia</country><latitude>54.732298</latitude><longitude>39.507098</longitude></city><city><cityName>Ribeirão Pires</cityName><country>Brazil</country><latitude>-23.7130018</latitude><longitude>-46.4140801</longitude></city><city><cityName>Heping</cityName><country>China</country><latitude>24.44218</latitude><longitude>114.938684</longitude></city><city><cityName>Nueva Helvecia</cityName><country>Uruguay</country><latitude>-34.3042878</latitude><longitude>-57.2310521</longitude></city><city><cityName>Sailaitang</cityName><country>China</country><latitude>32.934565</latitude><longitude>100.737037</longitude></city><city><cityName>Yanagawa</cityName><country>Japan</country><latitude>38.3692314</latitude><longitude>140.0575901</longitude></city><city><cityName>Shiyuan</cityName><country>China</country><latitude>39.9542181</latitude><longitude>116.2237499</longitude></city><city><cityName>Charikar</cityName><country>Afghanistan</country><latitude>35.0107648</latitude><longitude>69.1625896</longitude></city><city><cityName>Sosnovoborsk</cityName><country>Russia</country><latitude>53.3412978</latitude><longitude>46.2520423</longitude></city><city><cityName>Tarkwa</cityName><country>Ghana</country><latitude>5.301832</latitude><longitude>-1.9930466</longitude></city><city><cityName>Raczki</cityName><country>Poland</country><latitude>53.9888675</latitude><longitude>22.7829094</longitude></city><city><cityName>Zhongling</cityName><country>China</country><latitude>28.435584</latitude><longitude>116.483259</longitude></city><city><cityName>Cuiabá</cityName><country>Brazil</country><latitude>-15.5997099</latitude><longitude>-56.0976073</longitude></city><city><cityName>Mönsterås</cityName><country>Sweden</country><latitude>56.9846069</latitude><longitude>16.3374996</longitude></city><city><cityName>Caikouji</cityName><country>China</country><latitude>36.13521</latitude><longitude>107.382043</longitude></city><city><cityName>Kangshan</cityName><country>China</country><latitude>39.630867</latitude><longitude>118.180193</longitude></city><city><cityName>Carpentras</cityName><country>France</country><latitude>44.0264621</latitude><longitude>5.0852479</longitude></city><city><cityName>Agenebode</cityName><country>Nigeria</country><latitude>7.1065989</latitude><longitude>6.6878719</longitude></city><city><cityName>Eindhoven</cityName><country>Netherlands</country><latitude>51.4131558</latitude><longitude>5.4852794</longitude></city><city><cityName>Calidñgan</cityName><country>Philippines</country><latitude>10.1671173</latitude><longitude>123.6152351</longitude></city><city><cityName>Milaor</cityName><country>Philippines</country><latitude>13.631</latitude><longitude>123.193</longitude></city><city><cityName>Medianeira</cityName><country>Brazil</country><latitude>-25.2952784</latitude><longitude>-54.0932225</longitude></city><city><cityName>Santo Tomas</cityName><country>Philippines</country><latitude>7.5273576</latitude><longitude>125.6239227</longitude></city><city><cityName>Banikoara</cityName><country>Benin</country><latitude>11.2934532</latitude><longitude>2.435696</longitude></city><city><cityName>Kang-neung</cityName><country>South Korea</country><latitude>37.751853</latitude><longitude>128.8760574</longitude></city><city><cityName>Sidomulyo</cityName><country>Indonesia</country><latitude>-5.5844754</latitude><longitude>105.4771084</longitude></city><city><cityName>Sobreiro</cityName><country>Portugal</country><latitude>41.9227482</latitude><longitude>-8.5332804</longitude></city><city><cityName>Castainço</cityName><country>Portugal</country><latitude>40.9951643</latitude><longitude>-7.4476838</longitude></city><city><cityName>Frederiksberg</cityName><country>Denmark</country><latitude>55.676792</latitude><longitude>12.5550935</longitude></city><city><cityName>Świeradów-Zdrój</cityName><country>Poland</country><latitude>50.9060529</latitude><longitude>15.3368765</longitude></city><city><cityName>Karangnunggal</cityName><country>Indonesia</country><latitude>-7.6295345</latitude><longitude>108.1665855</longitude></city><city><cityName>Mariara</cityName><country>Venezuela</country><latitude>10.2891838</latitude><longitude>-67.719871</longitude></city><city><cityName>Zašová</cityName><country>Czech Republic</country><latitude>49.4817883</latitude><longitude>18.0449791</longitude></city><city><cityName>Bīrganj</cityName><country>Nepal</country><latitude>27.0449005</latitude><longitude>84.8672171</longitude></city><city><cityName>Mortka</cityName><country>Russia</country><latitude>59.332724</latitude><longitude>66.011516</longitude></city><city><cityName>Casimiro de Abreu</cityName><country>Brazil</country><latitude>-22.4836725</latitude><longitude>-42.2015431</longitude></city><city><cityName>Leomil</cityName><country>Portugal</country><latitude>40.9837776</latitude><longitude>-7.6593048</longitude></city><city><cityName>Barranco de Loba</cityName><country>Colombia</country><latitude>8.7261944</latitude><longitude>-74.0887576</longitude></city><city><cityName>Tawau</cityName><country>Malaysia</country><latitude>4.243113</latitude><longitude>117.893335</longitude></city><city><cityName>Avdzaga</cityName><country>Mongolia</country><latitude>47.87344</latitude><longitude>103.408699</longitude></city><city><cityName>Lyon</cityName><country>France</country><latitude>45.7417486</latitude><longitude>4.8867899</longitude></city><city><cityName>Jaqué</cityName><country>Panama</country><latitude>7.5164282</latitude><longitude>-78.1607186</longitude></city><city><cityName>Guápiles</cityName><country>Costa Rica</country><latitude>10.2166111</latitude><longitude>-83.7819816</longitude></city><city><cityName>Shatian</cityName><country>China</country><latitude>22.919769</latitude><longitude>113.618216</longitude></city><city><cityName>Turirejo</cityName><country>Indonesia</country><latitude>-6.8348685</latitude><longitude>110.6735079</longitude></city><city><cityName>Hà Đông</cityName><country>Vietnam</country><latitude>20.955835</latitude><longitude>105.7563658</longitude></city><city><cityName>Kurungannyawa</cityName><country>Indonesia</country><latitude>-4.2163479</latitude><longitude>104.4694186</longitude></city><city><cityName>Mikhaylovsk</cityName><country>Russia</country><latitude>56.4399654</latitude><longitude>59.1220846</longitude></city><city><cityName>San Jose</cityName><country>United States</country><latitude>37.34</latitude><longitude>-121.89</longitude></city><city><cityName>San Antonio</cityName><country>Philippines</country><latitude>14.5508865</latitude><longitude>121.0075554</longitude></city><city><cityName>Hujia</cityName><country>China</country><latitude>39.9226132</latitude><longitude>116.4606871</longitude></city><city><cityName>Vigo</cityName><country>Philippines</country><latitude>13.4734999</latitude><longitude>122.6157793</longitude></city><city><cityName>El Tránsito</cityName><country>Honduras</country><latitude>13.5192458</latitude><longitude>-87.6001222</longitude></city><city><cityName>Shapa</cityName><country>China</country><latitude>28.098056</latitude><longitude>101.579377</longitude></city><city><cityName>Honolulu</cityName><country>United States</country><latitude>21.3488387</latitude><longitude>-157.9435603</longitude></city><city><cityName>Al Lagowa</cityName><country>Sudan</country><latitude>11.40567</latitude><longitude>29.13859</longitude></city><city><cityName>Longotea</cityName><country>Peru</country><latitude>-7.043508</latitude><longitude>-77.873172</longitude></city><city><cityName>Yuejin</cityName><country>China</country><latitude>23.744617</latitude><longitude>102.674499</longitude></city><city><cityName>Jinggongqiao</cityName><country>China</country><latitude>29.744095</latitude><longitude>117.217373</longitude></city><city><cityName>Maojiagang</cityName><country>China</country><latitude>30.044835</latitude><longitude>112.071813</longitude></city><city><cityName>Da’an</cityName><country>China</country><latitude>45.506995</latitude><longitude>124.292626</longitude></city><city><cityName>Lazurne</cityName><country>Ukraine</country><latitude>46.0771644</latitude><longitude>32.5299379</longitude></city><city><cityName>Tierra y Libertad</cityName><country>Mexico</country><latitude>19.0561748</latitude><longitude>-98.2151462</longitude></city><city><cityName>Pho Thong</cityName><country>Thailand</country><latitude>14.6823992</latitude><longitude>100.3722477</longitude></city><city><cityName>Morrelgonj</cityName><country>Bangladesh</country><latitude>22.454973</latitude><longitude>89.9437755</longitude></city><city><cityName>Wangdain</cityName><country>China</country><latitude>28.9141178</latitude><longitude>120.0531443</longitude></city><city><cityName>Doljevac</cityName><country>Serbia</country><latitude>43.1912783</latitude><longitude>21.8238023</longitude></city><city><cityName>Guamal</cityName><country>Colombia</country><latitude>9.1669471</latitude><longitude>-74.1474846</longitude></city><city><cityName>Neuzina</cityName><country>Serbia</country><latitude>45.3095119</latitude><longitude>20.7261064</longitude></city><city><cityName>Omišalj</cityName><country>Croatia</country><latitude>45.2110039</latitude><longitude>14.5569253</longitude></city><city><cityName>Trucuk</cityName><country>Indonesia</country><latitude>-7.7291029</latitude><longitude>110.6764877</longitude></city><city><cityName>Antofagasta</cityName><country>Chile</country><latitude>-23.6509279</latitude><longitude>-70.3975022</longitude></city><city><cityName>Asbestos</cityName><country>Canada</country><latitude>45.7784442</latitude><longitude>-71.9229466</longitude></city><city><cityName>Kīevka</cityName><country>Kazakhstan</country><latitude>50.2603928</latitude><longitude>71.5485944</longitude></city><city><cityName>Gaphatshwe</cityName><country>Botswana</country><latitude>-24.5969718</latitude><longitude>25.9124229</longitude></city><city><cityName>Kotel’va</cityName><country>Ukraine</country><latitude>50.0688235</latitude><longitude>34.7645338</longitude></city><city><cityName>Guilmaro</cityName><country>Benin</country><latitude>10.5685138</latitude><longitude>1.7283341</longitude></city><city><cityName>Khrebtovaya</cityName><country>Russia</country><latitude>56.7012772</latitude><longitude>104.2143124</longitude></city><city><cityName>Wamba</cityName><country>Democratic Republic of the Congo</country><latitude>0.033333</latitude><longitude>22.55</longitude></city><city><cityName>Canto</cityName><country>Portugal</country><latitude>40.466606</latitude><longitude>-8.6357798</longitude></city><city><cityName>Casal do Sapo</cityName><country>Portugal</country><latitude>38.5537924</latitude><longitude>-9.0817894</longitude></city><city><cityName>San José de Barlovento</cityName><country>Venezuela</country><latitude>10.3036144</latitude><longitude>-65.9958004</longitude></city><city><cityName>Lago</cityName><country>Sierra Leone</country><latitude>9.75</latitude><longitude>-11.65</longitude></city><city><cityName>Nantes</cityName><country>France</country><latitude>47.2550409</latitude><longitude>-1.5401497</longitude></city><city><cityName>Nakhon Pathom</cityName><country>Thailand</country><latitude>13.81967</latitude><longitude>100.0601382</longitude></city><city><cityName>Šventoji</cityName><country>Lithuania</country><latitude>55.2474741</latitude><longitude>24.7743055</longitude></city><city><cityName>Guandi</cityName><country>China</country><latitude>3.14405</latitude><longitude>101.69676</longitude></city><city><cityName>Banag</cityName><country>Philippines</country><latitude>14.6875764</latitude><longitude>120.9777157</longitude></city><city><cityName>Ćićevac</cityName><country>Serbia</country><latitude>43.7212584</latitude><longitude>21.4436651</longitude></city><city><cityName>Los Angeles</cityName><country>United States</country><latitude>34.10885</latitude><longitude>-118.2234229</longitude></city><city><cityName>Vetlanda</cityName><country>Sweden</country><latitude>57.4145669</latitude><longitude>15.0919158</longitude></city><city><cityName>Sikasso</cityName><country>Mali</country><latitude>11.3223834</latitude><longitude>-5.6983979</longitude></city><city><cityName>Lidong</cityName><country>China</country><latitude>36.0491557</latitude><longitude>120.2139413</longitude></city><city><cityName>Biryulëvo</cityName><country>Russia</country><latitude>55.590397</latitude><longitude>37.6278499</longitude></city><city><cityName>Basa</cityName><country>Philippines</country><latitude>14.6430983</latitude><longitude>121.0219885</longitude></city><city><cityName>Shenshan</cityName><country>China</country><latitude>22.9567445</latitude><longitude>115.5856047</longitude></city><city><cityName>Oliveira do Conde</cityName><country>Portugal</country><latitude>40.4369802</latitude><longitude>-7.9617993</longitude></city><city><cityName>Zyablikovo</cityName><country>Russia</country><latitude>55.619557</latitude><longitude>37.754824</longitude></city><city><cityName>Jeziorzany</cityName><country>Poland</country><latitude>51.6325636</latitude><longitude>22.2519345</longitude></city><city><cityName>Shangshuai</cityName><country>China</country><latitude>24.245418</latitude><longitude>112.047678</longitude></city><city><cityName>Ambanja</cityName><country>Madagascar</country><latitude>-13.6635336</latitude><longitude>48.4537424</longitude></city><city><cityName>Kidodi</cityName><country>Tanzania</country><latitude>-7.916667</latitude><longitude>35.9166669</longitude></city><city><cityName>Irecê</cityName><country>Brazil</country><latitude>-11.303555</latitude><longitude>-41.8561503</longitude></city><city><cityName>Yufa</cityName><country>China</country><latitude>22.266978</latitude><longitude>113.502213</longitude></city><city><cityName>Dubova (Driloni)</cityName><country>Kosovo</country><latitude>42.71194</latitude><longitude>20.36972</longitude></city><city><cityName>Neuilly-sur-Marne</cityName><country>France</country><latitude>48.8537451</latitude><longitude>2.53823</longitude></city><city><cityName>Didian</cityName><country>China</country><latitude>30.943659</latitude><longitude>120.934925</longitude></city><city><cityName>Banquero</cityName><country>Philippines</country><latitude>17.0228</latitude><longitude>121.778434</longitude></city><city><cityName>Cotmon</cityName><country>Philippines</country><latitude>13.1225237</latitude><longitude>123.6615247</longitude></city><city><cityName>San Miguel</cityName><country>Mexico</country><latitude>19.3579802</latitude><longitude>-99.0806088</longitude></city><city><cityName>Conduaga</cityName><country>Philippines</country><latitude>8.4864751</latitude><longitude>124.7352102</longitude></city><city><cityName>Chuanshan</cityName><country>China</country><latitude>30.525475</latitude><longitude>105.568297</longitude></city><city><cityName>Jingzi</cityName><country>China</country><latitude>27.465141</latitude><longitude>112.424933</longitude></city><city><cityName>Sambongmulyo</cityName><country>Indonesia</country><latitude>-6.7353</latitude><longitude>111.4931</longitude></city><city><cityName>Surcubamba</cityName><country>Peru</country><latitude>-12.1230818</latitude><longitude>-74.6341875</longitude></city><city><cityName>Daixi</cityName><country>China</country><latitude>30.66044</latitude><longitude>120.013991</longitude></city><city><cityName>Nanjie</cityName><country>China</country><latitude>26.6849798</latitude><longitude>100.7492159</longitude></city><city><cityName>Tubel</cityName><country>Indonesia</country><latitude>-8.4422524</latitude><longitude>124.1253751</longitude></city><city><cityName>Baishan</cityName><country>China</country><latitude>41.933917</latitude><longitude>126.422806</longitude></city><city><cityName>Paiisa</cityName><country>Philippines</country><latitude>13.9289816</latitude><longitude>121.3567739</longitude></city><city><cityName>Lomma</cityName><country>Sweden</country><latitude>55.6771783</latitude><longitude>13.0856744</longitude></city><city><cityName>Orange Walk</cityName><country>Belize</country><latitude>18.0842472</latitude><longitude>-88.5710266</longitude></city><city><cityName>Seke</cityName><country>China</country><latitude>29.742172</latitude><longitude>103.583042</longitude></city><city><cityName>Adiaké</cityName><country>Ivory Coast</country><latitude>5.2858205</latitude><longitude>-3.3036439</longitude></city><city><cityName>Dieppe</cityName><country>France</country><latitude>49.8683919</latitude><longitude>1.1433823</longitude></city><city><cityName>Ad Darbāsīyah</cityName><country>Syria</country><latitude>37.0721008</latitude><longitude>40.6524512</longitude></city><city><cityName>Qulaybīyah</cityName><country>Tunisia</country><latitude>36.84757</latitude><longitude>11.09386</longitude></city><city><cityName>Praga Północ</cityName><country>Poland</country><latitude>51.8964003</latitude><longitude>18.9565781</longitude></city><city><cityName>Kurnia</cityName><country>Indonesia</country><latitude>1.148102</latitude><longitude>104.011505</longitude></city><city><cityName>Santyoku</cityName><country>South Korea</country><latitude>37.44056</latitude><longitude>129.17083</longitude></city><city><cityName>Piojó</cityName><country>Colombia</country><latitude>10.748716</latitude><longitude>-75.107922</longitude></city><city><cityName>Sonina</cityName><country>Poland</country><latitude>50.057265</latitude><longitude>22.275776</longitude></city><city><cityName>Galtek</cityName><country>Indonesia</country><latitude>-7.0728</latitude><longitude>114.0294</longitude></city><city><cityName>Hangchuan</cityName><country>China</country><latitude>43.817071</latitude><longitude>125.323544</longitude></city><city><cityName>Dallas</cityName><country>United States</country><latitude>32.6901244</latitude><longitude>-96.937016</longitude></city><city><cityName>Palkino</cityName><country>Russia</country><latitude>57.5394675</latitude><longitude>28.0121149</longitude></city><city><cityName>Bern</cityName><country>Switzerland</country><latitude>46.949235</latitude><longitude>7.4439108</longitude></city><city><cityName>Hägersten</cityName><country>Sweden</country><latitude>59.305486</latitude><longitude>18.0023078</longitude></city><city><cityName>Boden</cityName><country>Sweden</country><latitude>57.8857887</latitude><longitude>12.3260421</longitude></city><city><cityName>Gradec</cityName><country>Macedonia</country><latitude>41.8984166</latitude><longitude>20.905252</longitude></city><city><cityName>Curridabat</cityName><country>Costa Rica</country><latitude>9.915551</latitude><longitude>-84.031286</longitude></city><city><cityName>Jagdaqi</cityName><country>China</country><latitude>50.425413</latitude><longitude>124.118816</longitude></city><city><cityName>Ushuaia</cityName><country>Argentina</country><latitude>-54.8079502</latitude><longitude>-68.3214955</longitude></city><city><cityName>Pelópion</cityName><country>Greece</country><latitude>37.6753305</latitude><longitude>21.5926702</longitude></city><city><cityName>Mirzec</cityName><country>Poland</country><latitude>51.1501056</latitude><longitude>21.0487361</longitude></city><city><cityName>Kfar NaOranim</cityName><country>Israel</country><latitude>31.919928</latitude><longitude>35.036911</longitude></city><city><cityName>Hluboká nad Vltavou</cityName><country>Czech Republic</country><latitude>49.0522544</latitude><longitude>14.4342708</longitude></city><city><cityName>Goričan</cityName><country>Croatia</country><latitude>46.3899032</latitude><longitude>16.6974271</longitude></city><city><cityName>Pinghu</cityName><country>China</country><latitude>30.677233</latitude><longitude>121.015142</longitude></city><city><cityName>Sydney Mines</cityName><country>Canada</country><latitude>46.2475531</latitude><longitude>-60.2362743</longitude></city><city><cityName>Kuchinarai</cityName><country>Thailand</country><latitude>16.504382</latitude><longitude>104.0304535</longitude></city><city><cityName>Jönköping</cityName><country>Sweden</country><latitude>57.7871116</latitude><longitude>14.2369341</longitude></city><city><cityName>Kalayemule</cityName><country>China</country><latitude>46.75486</latitude><longitude>84.3596</longitude></city><city><cityName>North York</cityName><country>Canada</country><latitude>43.7543283</latitude><longitude>-79.4422593</longitude></city><city><cityName>Ngrejo</cityName><country>Indonesia</country><latitude>-8.2412718</latitude><longitude>112.0744643</longitude></city><city><cityName>Mabini</cityName><country>Philippines</country><latitude>14.5024732</latitude><longitude>120.9921722</longitude></city><city><cityName>Sambirata</cityName><country>Indonesia</country><latitude>-7.3363345</latitude><longitude>109.1434108</longitude></city><city><cityName>Diaofeng</cityName><country>China</country><latitude>26.694208</latitude><longitude>115.939083</longitude></city><city><cityName>Berezniki</cityName><country>Russia</country><latitude>59.4248225</latitude><longitude>56.6216121</longitude></city><city><cityName>Mafa</cityName><country>Nigeria</country><latitude>11.924</latitude><longitude>13.5986529</longitude></city><city><cityName>Gagarin</cityName><country>Armenia</country><latitude>40.5425073</latitude><longitude>44.868475</longitude></city><city><cityName>Daze</cityName><country>China</country><latitude>20.0429063</latitude><longitude>110.354037</longitude></city><city><cityName>Shubenka</cityName><country>Russia</country><latitude>52.6551</latitude><longitude>85.09858</longitude></city><city><cityName>Shapaja</cityName><country>Peru</country><latitude>-6.5801079</latitude><longitude>-76.2609463</longitude></city><city><cityName>Benhao</cityName><country>China</country><latitude>22.562964</latitude><longitude>113.156269</longitude></city><city><cityName>Souto de Cima</cityName><country>Portugal</country><latitude>39.7406374</latitude><longitude>-8.7186315</longitude></city><city><cityName>Mosteiros</cityName><country>Portugal</country><latitude>39.1935336</latitude><longitude>-7.2866952</longitude></city><city><cityName>Qianjin</cityName><country>China</country><latitude>46.814102</latitude><longitude>130.375062</longitude></city><city><cityName>Yotsukaidō</cityName><country>Japan</country><latitude>35.662808</latitude><longitude>140.164927</longitude></city><city><cityName>Cambita Garabitos</cityName><country>Dominican Republic</country><latitude>18.455503</latitude><longitude>-70.202889</longitude></city><city><cityName>Tuofeng</cityName><country>China</country><latitude>24.936417</latitude><longitude>98.482754</longitude></city><city><cityName>Zhuxi Chengguanzhen</cityName><country>China</country><latitude>32.312511</latitude><longitude>109.712183</longitude></city><city><cityName>Figueiró dos Vinhos</cityName><country>Portugal</country><latitude>39.906972</latitude><longitude>-8.2750089</longitude></city><city><cityName>Tsagaan-Olom</cityName><country>Mongolia</country><latitude>46.71327</latitude><longitude>96.52588</longitude></city><city><cityName>Maciejowice</cityName><country>Poland</country><latitude>51.6919243</latitude><longitude>21.5535126</longitude></city><city><cityName>Huancheng</cityName><country>China</country><latitude>30.940195</latitude><longitude>118.75868</longitude></city><city><cityName>Silvares</cityName><country>Portugal</country><latitude>40.5544993</latitude><longitude>-7.9843201</longitude></city><city><cityName>Ilanskiy</cityName><country>Russia</country><latitude>56.2437046</latitude><longitude>96.0954395</longitude></city><city><cityName>Gornyye Klyuchi</cityName><country>Russia</country><latitude>45.2263404</latitude><longitude>133.5047756</longitude></city><city><cityName>Valence</cityName><country>France</country><latitude>44.9280296</latitude><longitude>4.8932938</longitude></city><city><cityName>Malayal</cityName><country>Philippines</country><latitude>12.8513784</latitude><longitude>121.4666549</longitude></city><city><cityName>Ferme-Neuve</cityName><country>Canada</country><latitude>46.70011</latitude><longitude>-75.44929</longitude></city><city><cityName>Borås</cityName><country>Sweden</country><latitude>57.7197857</latitude><longitude>12.933356</longitude></city><city><cityName>Palca</cityName><country>Peru</country><latitude>-11.3442564</latitude><longitude>-75.5655147</longitude></city><city><cityName>Patao</cityName><country>Philippines</country><latitude>11.229568</latitude><longitude>123.6962232</longitude></city><city><cityName>Cigalontang</cityName><country>Indonesia</country><latitude>-7.3059077</latitude><longitude>107.9768875</longitude></city><city><cityName>Bagakay</cityName><country>Philippines</country><latitude>10.3570129</latitude><longitude>123.9839638</longitude></city><city><cityName>Bojonghaur</cityName><country>Indonesia</country><latitude>-7.0351794</latitude><longitude>106.6939376</longitude></city><city><cityName>Jinka</cityName><country>Ethiopia</country><latitude>5.7806339</latitude><longitude>36.5715924</longitude></city><city><cityName>Muroran</cityName><country>Japan</country><latitude>42.616208</latitude><longitude>141.5321435</longitude></city><city><cityName>Belo</cityName><country>Cameroon</country><latitude>6.1360612</latitude><longitude>10.2572084</longitude></city><city><cityName>Vazhiny</cityName><country>Russia</country><latitude>60.9596322</latitude><longitude>34.0219218</longitude></city><city><cityName>Lixiqiao</cityName><country>China</country><latitude>31.067673</latitude><longitude>121.567646</longitude></city><city><cityName>Mirskoy</cityName><country>Russia</country><latitude>45.5426102</latitude><longitude>40.4010024</longitude></city><city><cityName>Pryamitsyno</cityName><country>Russia</country><latitude>51.6561</latitude><longitude>35.9314</longitude></city><city><cityName>Tulsīpur</cityName><country>Nepal</country><latitude>28.154453</latitude><longitude>82.3234843</longitude></city><city><cityName>Rossosh’</cityName><country>Russia</country><latitude>50.1987725</latitude><longitude>39.5632497</longitude></city><city><cityName>Nardaran</cityName><country>Azerbaijan</country><latitude>40.5738701</latitude><longitude>49.9881435</longitude></city><city><cityName>Solnechnogorsk</cityName><country>Russia</country><latitude>56.176516</latitude><longitude>36.99786</longitude></city><city><cityName>Kokshetau</cityName><country>Kazakhstan</country><latitude>53.2948229</latitude><longitude>69.4047872</longitude></city><city><cityName>Victoria</cityName><country>Chile</country><latitude>-38.2326538</latitude><longitude>-72.3515084</longitude></city><city><cityName>Ccuntuma</cityName><country>Peru</country><latitude>-12.0950161</latitude><longitude>-77.0266968</longitude></city><city><cityName>Girey</cityName><country>Russia</country><latitude>43.1613333</latitude><longitude>46.0016156</longitude></city><city><cityName>Seattle</cityName><country>United States</country><latitude>47.6025001</latitude><longitude>-122.3385759</longitude></city><city><cityName>Ekpoma</cityName><country>Nigeria</country><latitude>6.7491405</latitude><longitude>6.0732146</longitude></city><city><cityName>Śniadowo</cityName><country>Poland</country><latitude>53.0382065</latitude><longitude>21.9907815</longitude></city><city><cityName>Kota Bharu</cityName><country>Malaysia</country><latitude>6.1097207</latitude><longitude>102.2462087</longitude></city><city><cityName>Achadinha</cityName><country>Portugal</country><latitude>37.8484284</latitude><longitude>-25.2822768</longitude></city><city><cityName>Daliyuan</cityName><country>China</country><latitude>25.387227</latitude><longitude>98.43503</longitude></city><city><cityName>Sananduva</cityName><country>Brazil</country><latitude>-27.950568</latitude><longitude>-51.8148609</longitude></city><city><cityName>Xujiadian</cityName><country>China</country><latitude>37.082157</latitude><longitude>120.99453</longitude></city><city><cityName>Tanjung Raja</cityName><country>Indonesia</country><latitude>-3.3365561</latitude><longitude>104.7404269</longitude></city><city><cityName>Karangtengah Lor</cityName><country>Indonesia</country><latitude>-6.2057964</latitude><longitude>106.7057733</longitude></city><city><cityName>Bingawan</cityName><country>Philippines</country><latitude>11.2328036</latitude><longitude>122.5666402</longitude></city><city><cityName>Yangfeng</cityName><country>China</country><latitude>26.888665</latitude><longitude>112.616612</longitude></city><city><cityName>Strängnäs</cityName><country>Sweden</country><latitude>59.3730045</latitude><longitude>17.0201379</longitude></city><city><cityName>Kawaguchi</cityName><country>Japan</country><latitude>38.7933106</latitude><longitude>140.2234077</longitude></city><city><cityName>Tinabogan</cityName><country>Indonesia</country><latitude>0.7821696</latitude><longitude>120.5307881</longitude></city><city><cityName>Rathdrum</cityName><country>Ireland</country><latitude>53.2339841</latitude><longitude>-6.163027</longitude></city><city><cityName>Matnah</cityName><country>Yemen</country><latitude>15.2525945</latitude><longitude>44.0270562</longitude></city><city><cityName>Roubaix</cityName><country>France</country><latitude>50.6930818</latitude><longitude>3.1845673</longitude></city><city><cityName>Shimorskoye</cityName><country>Russia</country><latitude>55.3293156</latitude><longitude>42.0426795</longitude></city><city><cityName>Bato</cityName><country>Philippines</country><latitude>14.5144041</latitude><longitude>121.0406718</longitude></city><city><cityName>Changdai</cityName><country>China</country><latitude>32.121962</latitude><longitude>120.337007</longitude></city><city><cityName>Liugong</cityName><country>China</country><latitude>24.3154419</latitude><longitude>109.3656914</longitude></city><city><cityName>Skien</cityName><country>Norway</country><latitude>59.2264806</latitude><longitude>9.5943509</longitude></city><city><cityName>Aga</cityName><country>Philippines</country><latitude>13.8266134</latitude><longitude>122.9580541</longitude></city><city><cityName>Lazaro Cardenas</cityName><country>Mexico</country><latitude>17.9567646</latitude><longitude>-102.1943485</longitude></city><city><cityName>Haarlem</cityName><country>Netherlands</country><latitude>52.3626877</latitude><longitude>4.6195236</longitude></city><city><cityName>Xiangshan</cityName><country>China</country><latitude>29.476705</latitude><longitude>121.869339</longitude></city><city><cityName>Poddębice</cityName><country>Poland</country><latitude>51.8803457</latitude><longitude>18.9033376</longitude></city><city><cityName>Habry</cityName><country>Czech Republic</country><latitude>49.7578885</latitude><longitude>15.4826417</longitude></city><city><cityName>Vedène</cityName><country>France</country><latitude>43.9763746</latitude><longitude>4.9052738</longitude></city><city><cityName>Barra do Corda</cityName><country>Brazil</country><latitude>-5.5018917</latitude><longitude>-45.2464996</longitude></city><city><cityName>Rust’avi</cityName><country>Georgia</country><latitude>41.5225612</latitude><longitude>45.0430369</longitude></city><city><cityName>Lemende</cityName><country>Portugal</country><latitude>41.3176391</latitude><longitude>-8.5425485</longitude></city><city><cityName>Gamut</cityName><country>Philippines</country><latitude>9.000538</latitude><longitude>126.159227</longitude></city><city><cityName>Igreja</cityName><country>Portugal</country><latitude>41.1653042</latitude><longitude>-7.7850487</longitude></city><city><cityName>Zaprudnya</cityName><country>Russia</country><latitude>56.5637319</latitude><longitude>37.4286044</longitude></city><city><cityName>Pak Phanang</cityName><country>Thailand</country><latitude>8.287423</latitude><longitude>100.1927389</longitude></city><city><cityName>Selmes</cityName><country>Portugal</country><latitude>38.1454503</latitude><longitude>-7.7618365</longitude></city><city><cityName>Grazhdanskoye</cityName><country>Russia</country><latitude>48.4935627</latitude><longitude>135.0631263</longitude></city><city><cityName>Paritjunus</cityName><country>Indonesia</country><latitude>2.06823</latitude><longitude>100.59082</longitude></city><city><cityName>Grecheskoye</cityName><country>Russia</country><latitude>44.421459</latitude><longitude>43.003708</longitude></city><city><cityName>Altunemil</cityName><country>China</country><latitude>46.11923</latitude><longitude>83.09014</longitude></city><city><cityName>Yunfu</cityName><country>China</country><latitude>22.915094</latitude><longitude>112.044491</longitude></city><city><cityName>Nackawic</cityName><country>Canada</country><latitude>45.9891389</latitude><longitude>-67.2412221</longitude></city><city><cityName>Chatuchak</cityName><country>Thailand</country><latitude>13.8198099</latitude><longitude>100.5633655</longitude></city><city><cityName>Koilás</cityName><country>Greece</country><latitude>37.4132997</latitude><longitude>23.125332</longitude></city><city><cityName>Sipoholon</cityName><country>Indonesia</country><latitude>2.0610237</latitude><longitude>98.9024603</longitude></city><city><cityName>Samagaltay</cityName><country>Russia</country><latitude>50.6000912</latitude><longitude>94.9998807</longitude></city><city><cityName>Oslo</cityName><country>Norway</country><latitude>59.960223</latitude><longitude>10.7590006</longitude></city><city><cityName>Krasae Sin</cityName><country>Thailand</country><latitude>7.6182738</latitude><longitude>100.3048897</longitude></city><city><cityName>København</cityName><country>Denmark</country><latitude>55.6699522</latitude><longitude>12.5708777</longitude></city><city><cityName>Huaihua</cityName><country>China</country><latitude>27.569517</latitude><longitude>110.001922</longitude></city><city><cityName>Weekombaka</cityName><country>Indonesia</country><latitude>-9.4852898</latitude><longitude>119.1736353</longitude></city><city><cityName>Kathu</cityName><country>South Africa</country><latitude>-27.6923006</latitude><longitude>23.0367512</longitude></city><city><cityName>Lazurne</cityName><country>Ukraine</country><latitude>46.0771644</latitude><longitude>32.5299379</longitude></city><city><cityName>Kambar</cityName><country>Pakistan</country><latitude>27.8084474</latitude><longitude>67.9277909</longitude></city><city><cityName>Las Tejeras</cityName><country>Honduras</country><latitude>14.8032838</latitude><longitude>-88.5975892</longitude></city><city><cityName>Randuagung</cityName><country>Indonesia</country><latitude>-8.0796655</latitude><longitude>113.3049491</longitude></city><city><cityName>Taverny</cityName><country>France</country><latitude>49.0178185</latitude><longitude>2.2072155</longitude></city><city><cityName>Satun</cityName><country>Thailand</country><latitude>7.8870586</latitude><longitude>98.3854869</longitude></city><city><cityName>Göteborg</cityName><country>Sweden</country><latitude>57.7311038</latitude><longitude>12.0586612</longitude></city><city><cityName>Merklín</cityName><country>Czech Republic</country><latitude>49.5604375</latitude><longitude>13.1979079</longitude></city><city><cityName>Qinnan</cityName><country>China</country><latitude>21.938859</latitude><longitude>108.657209</longitude></city><city><cityName>Jinfeng</cityName><country>China</country><latitude>38.47436</latitude><longitude>106.239679</longitude></city><city><cityName>Kachar</cityName><country>Kazakhstan</country><latitude>53.45</latitude><longitude>62.9833329</longitude></city><city><cityName>Qiaotou</cityName><country>China</country><latitude>28.168408</latitude><longitude>120.482198</longitude></city><city><cityName>Onokivtsi</cityName><country>Ukraine</country><latitude>48.6541216</latitude><longitude>22.3433482</longitude></city><city><cityName>Hepu</cityName><country>China</country><latitude>21.660935</latitude><longitude>109.207335</longitude></city><city><cityName>Ferkessédougou</cityName><country>Ivory Coast</country><latitude>9.5842012</latitude><longitude>-5.1953554</longitude></city><city><cityName>Houzhen</cityName><country>China</country><latitude>30.742803</latitude><longitude>120.48806</longitude></city><city><cityName>Coroatá</cityName><country>Brazil</country><latitude>-4.055821</latitude><longitude>-44.1720266</longitude></city><city><cityName>Kaset Sombun</cityName><country>Thailand</country><latitude>16.2426241</latitude><longitude>101.9348069</longitude></city><city><cityName>Sanxing</cityName><country>China</country><latitude>29.763892</latitude><longitude>121.513271</longitude></city><city><cityName>Caucasia</cityName><country>Colombia</country><latitude>7.7526495</latitude><longitude>-74.9442585</longitude></city><city><cityName>Asikkala</cityName><country>Finland</country><latitude>61.259673</latitude><longitude>25.4873452</longitude></city><city><cityName>Qinling Jieban</cityName><country>China</country><latitude>34.1777698</latitude><longitude>108.8682333</longitude></city><city><cityName>Masaraway</cityName><country>Philippines</country><latitude>13.2268</latitude><longitude>123.6148</longitude></city><city><cityName>Sedinginan</cityName><country>Indonesia</country><latitude>1.5594449</latitude><longitude>101.0146187</longitude></city><city><cityName>Parchowo</cityName><country>Poland</country><latitude>54.2064439</latitude><longitude>17.6677767</longitude></city><city><cityName>Jember</cityName><country>Indonesia</country><latitude>-8.1844859</latitude><longitude>113.6680747</longitude></city><city><cityName>Cabog</cityName><country>Philippines</country><latitude>14.6741293</latitude><longitude>120.5112907</longitude></city><city><cityName>Yeyik</cityName><country>China</country><latitude>36.66667</latitude><longitude>83.23333</longitude></city><city><cityName>Ancasti</cityName><country>Argentina</country><latitude>-31.4397154</latitude><longitude>-64.1251893</longitude></city><city><cityName>Mirsíni</cityName><country>Greece</country><latitude>37.9209684</latitude><longitude>21.2374124</longitude></city><city><cityName>Saguing</cityName><country>Philippines</country><latitude>6.893618</latitude><longitude>125.164477</longitude></city><city><cityName>Salam</cityName><country>Indonesia</country><latitude>-7.6247732</latitude><longitude>110.2951364</longitude></city><city><cityName>Firmat</cityName><country>Argentina</country><latitude>-33.453544</latitude><longitude>-61.486922</longitude></city><city><cityName>Bemposta</cityName><country>Portugal</country><latitude>41.7464398</latitude><longitude>-8.3721165</longitude></city><city><cityName>Nkurenkuru</cityName><country>Namibia</country><latitude>-17.6282228</latitude><longitude>18.6101405</longitude></city><city><cityName>Barão de Melgaço</cityName><country>Brazil</country><latitude>-16.9163431</latitude><longitude>-56.0249982</longitude></city><city><cityName>Pakemitan Dua</cityName><country>Indonesia</country><latitude>-7.1550724</latitude><longitude>108.1498006</longitude></city><city><cityName>Mazańcowice</cityName><country>Poland</country><latitude>49.858677</latitude><longitude>18.9770856</longitude></city><city><cityName>António Enes</cityName><country>Mozambique</country><latitude>-16.2162656</latitude><longitude>39.914466</longitude></city><city><cityName>Zhugentan</cityName><country>China</country><latitude>30.493506</latitude><longitude>112.906645</longitude></city><city><cityName>Maiduguri</cityName><country>Nigeria</country><latitude>11.8310981</latitude><longitude>13.1509672</longitude></city><city><cityName>Kotatengah</cityName><country>Indonesia</country><latitude>0.561734</latitude><longitude>123.0535774</longitude></city><city><cityName>Usa River</cityName><country>Tanzania</country><latitude>-3.380978</latitude><longitude>36.8398354</longitude></city><city><cityName>Kuala Lumpur</cityName><country>Malaysia</country><latitude>3.1523104</latitude><longitude>101.7178316</longitude></city><city><cityName>Olival Basto</cityName><country>Portugal</country><latitude>38.7960995</latitude><longitude>-9.1540186</longitude></city><city><cityName>Kīevka</cityName><country>Kazakhstan</country><latitude>50.2603928</latitude><longitude>71.5485944</longitude></city><city><cityName>Satte</cityName><country>Japan</country><latitude>36.0821986</latitude><longitude>139.7249685</longitude></city><city><cityName>Sumalig</cityName><country>Philippines</country><latitude>7.998611</latitude><longitude>123.6602783</longitude></city><city><cityName>Debar</cityName><country>Macedonia</country><latitude>41.523117</latitude><longitude>20.526623</longitude></city><city><cityName>Alfenas</cityName><country>Brazil</country><latitude>-21.4261129</latitude><longitude>-45.9481612</longitude></city><city><cityName>Sandwīp</cityName><country>Bangladesh</country><latitude>22.4937132</latitude><longitude>91.5015009</longitude></city><city><cityName>Abilay</cityName><country>Philippines</country><latitude>10.752961</latitude><longitude>122.49448</longitude></city><city><cityName>Diyarb Najm</cityName><country>Egypt</country><latitude>30.7532224</latitude><longitude>31.442761</longitude></city><city><cityName>Kranggan</cityName><country>Indonesia</country><latitude>-7.3</latitude><longitude>109.066667</longitude></city><city><cityName>Cuba</cityName><country>Portugal</country><latitude>38.1661758</latitude><longitude>-7.888224</longitude></city><city><cityName>Lakkha Nëvre</cityName><country>Russia</country><latitude>43.6158396</latitude><longitude>45.2369958</longitude></city><city><cityName>Annapolis</cityName><country>United States</country><latitude>39.0327543</latitude><longitude>-76.5517132</longitude></city><city><cityName>Koina</cityName><country>Gambia</country><latitude>13.4760557</latitude><longitude>-13.8651056</longitude></city><city><cityName>Si Racha</cityName><country>Thailand</country><latitude>13.1641308</latitude><longitude>100.9216588</longitude></city><city><cityName>Wugong</cityName><country>China</country><latitude>34.326903</latitude><longitude>108.117456</longitude></city><city><cityName>Sukarama</cityName><country>Indonesia</country><latitude>-6.9168815</latitude><longitude>107.2252675</longitude></city><city><cityName>Geshan</cityName><country>China</country><latitude>31.887402</latitude><longitude>115.440283</longitude></city><city><cityName>Fastiv</cityName><country>Ukraine</country><latitude>50.0637682</latitude><longitude>29.9049684</longitude></city><city><cityName>Áyios Vasílios</cityName><country>Greece</country><latitude>37.7937857</latitude><longitude>22.8003951</longitude></city><city><cityName>Pécs</cityName><country>Hungary</country><latitude>46.0852466</latitude><longitude>18.3028286</longitude></city><city><cityName>Sandvika</cityName><country>Norway</country><latitude>59.021857</latitude><longitude>10.083357</longitude></city><city><cityName>Tyrawa Wołoska</cityName><country>Poland</country><latitude>49.5773435</latitude><longitude>22.3696964</longitude></city><city><cityName>Rossosh’</cityName><country>Russia</country><latitude>50.1987725</latitude><longitude>39.5632497</longitude></city><city><cityName>Blahodatne</cityName><country>Ukraine</country><latitude>47.7016459</latitude><longitude>37.4209877</longitude></city><city><cityName>Saint-Marcellin</cityName><country>France</country><latitude>45.1749035</latitude><longitude>5.3067172</longitude></city><city><cityName>Sindangjawa</cityName><country>Indonesia</country><latitude>-6.764566</latitude><longitude>108.4496053</longitude></city><city><cityName>Dolní Dunajovice</cityName><country>Czech Republic</country><latitude>48.8547803</latitude><longitude>16.5671697</longitude></city><city><cityName>Tupã</cityName><country>Brazil</country><latitude>-21.9310093</latitude><longitude>-50.5069723</longitude></city><city><cityName>Xaçmaz</cityName><country>Azerbaijan</country><latitude>41.4591168</latitude><longitude>48.8020626</longitude></city><city><cityName>Obertyn</cityName><country>Ukraine</country><latitude>48.6943534</latitude><longitude>25.1747279</longitude></city><city><cityName>Dongkengkou</cityName><country>China</country><latitude>25.871681</latitude><longitude>114.674065</longitude></city><city><cityName>Atalaia</cityName><country>Portugal</country><latitude>39.2349991</latitude><longitude>-9.3203293</longitude></city><city><cityName>Savanna-la-Mar</cityName><country>Jamaica</country><latitude>18.2291677</latitude><longitude>-78.1393397</longitude></city><city><cityName>Jiujie</cityName><country>China</country><latitude>39.952319</latitude><longitude>119.598195</longitude></city><city><cityName>Bugojno</cityName><country>Bosnia and Herzegovina</country><latitude>44.0562486</latitude><longitude>17.4498275</longitude></city><city><cityName>Dom Pedrito</cityName><country>Brazil</country><latitude>-30.9738956</latitude><longitude>-54.6847647</longitude></city><city><cityName>Rantaupanjang</cityName><country>Indonesia</country><latitude>2.093257</latitude><longitude>117.457497</longitude></city><city><cityName>Pau</cityName><country>France</country><latitude>43.2916776</latitude><longitude>-0.3696612</longitude></city><city><cityName>Hofors</cityName><country>Sweden</country><latitude>60.54595</latitude><longitude>16.2841</longitude></city><city><cityName>Bloomington</cityName><country>United States</country><latitude>39.1714266</latitude><longitude>-86.5186022</longitude></city><city><cityName>Doushan</cityName><country>China</country><latitude>22.060541</latitude><longitude>112.837815</longitude></city><city><cityName>Taling Chan</cityName><country>Thailand</country><latitude>13.7733179</latitude><longitude>100.4284178</longitude></city><city><cityName>Xiting</cityName><country>China</country><latitude>32.117935</latitude><longitude>121.009708</longitude></city><city><cityName>Gujiadian</cityName><country>China</country><latitude>30.3352</latitude><longitude>111.566008</longitude></city><city><cityName>Nagrumbuan</cityName><country>Philippines</country><latitude>16.8991985</latitude><longitude>121.7075195</longitude></city><city><cityName>Baipu</cityName><country>China</country><latitude>23.70475</latitude><longitude>114.849821</longitude></city><city><cityName>Aghavnadzor</cityName><country>Armenia</country><latitude>40.5784827</latitude><longitude>44.6998779</longitude></city><city><cityName>Boronów</cityName><country>Poland</country><latitude>50.6655892</latitude><longitude>18.9277567</longitude></city><city><cityName>Kobylin</cityName><country>Poland</country><latitude>51.7157581</latitude><longitude>17.2266796</longitude></city><city><cityName>Ucluelet</cityName><country>Canada</country><latitude>48.94153</latitude><longitude>-125.54635</longitude></city><city><cityName>Fosses</cityName><country>France</country><latitude>44.5943255</latitude><longitude>0.057855</longitude></city><city><cityName>Libertador General San Martín</cityName><country>Argentina</country><latitude>-27.3987162</latitude><longitude>-55.9209672</longitude></city><city><cityName>Makoua</cityName><country>Republic of the Congo</country><latitude>-0.004491</latitude><longitude>15.6119301</longitude></city><city><cityName>Suvorov</cityName><country>Russia</country><latitude>55.780902</latitude><longitude>37.618106</longitude></city><city><cityName>Sinjil</cityName><country>Palestinian Territory</country><latitude>32.033607</latitude><longitude>35.263935</longitude></city><city><cityName>Angus</cityName><country>Canada</country><latitude>44.31681</latitude><longitude>-79.88295</longitude></city><city><cityName>Nomhon</cityName><country>China</country><latitude>31.121606</latitude><longitude>104.38784</longitude></city><city><cityName>Daguma</cityName><country>Philippines</country><latitude>14.6141298</latitude><longitude>121.0143507</longitude></city><city><cityName>Madala</cityName><country>Nigeria</country><latitude>8.5395253</latitude><longitude>4.4735386</longitude></city><city><cityName>Kasba Tadla</cityName><country>Morocco</country><latitude>32.5958283</latitude><longitude>-6.2694608</longitude></city><city><cityName>Żabia Wola</cityName><country>Poland</country><latitude>52.0008866</latitude><longitude>20.6716007</longitude></city><city><cityName>Riba de Ave</cityName><country>Portugal</country><latitude>41.385858</latitude><longitude>-8.3854178</longitude></city><city><cityName>Kaiaf</cityName><country>Gambia</country><latitude>13.4082642</latitude><longitude>-15.6082651</longitude></city><city><cityName>Vyšší Brod</cityName><country>Czech Republic</country><latitude>48.615982</latitude><longitude>14.3118195</longitude></city><city><cityName>Balungao</cityName><country>Philippines</country><latitude>15.8983567</latitude><longitude>120.7162377</longitude></city><city><cityName>Bartica</cityName><country>Guyana</country><latitude>6.4043217</latitude><longitude>-58.625825</longitude></city><city><cityName>Vito</cityName><country>Philippines</country><latitude>14.5672162</latitude><longitude>121.0042974</longitude></city><city><cityName>Pamungguan</cityName><country>Indonesia</country><latitude>-7.2560353</latitude><longitude>106.5620398</longitude></city><city><cityName>Balky</cityName><country>Ukraine</country><latitude>47.3845072</latitude><longitude>34.9321089</longitude></city><city><cityName>Wichian Buri</cityName><country>Thailand</country><latitude>15.7268196</latitude><longitude>101.207047</longitude></city><city><cityName>Smiřice</cityName><country>Czech Republic</country><latitude>50.2997788</latitude><longitude>15.865081</longitude></city><city><cityName>Telhado</cityName><country>Portugal</country><latitude>41.6429311</latitude><longitude>-8.1464077</longitude></city><city><cityName>Filothéi</cityName><country>Greece</country><latitude>38.0222208</latitude><longitude>23.7851957</longitude></city><city><cityName>Chemodanovka</cityName><country>Russia</country><latitude>53.2254858</latitude><longitude>45.2551096</longitude></city><city><cityName>Ungaran</cityName><country>Indonesia</country><latitude>-7.1364308</latitude><longitude>110.4098775</longitude></city><city><cityName>Kuantian</cityName><country>China</country><latitude>25.99296</latitude><longitude>115.667678</longitude></city><city><cityName>Changtang</cityName><country>China</country><latitude>27.1840722</latitude><longitude>114.9749001</longitude></city><city><cityName>Khromtau</cityName><country>Kazakhstan</country><latitude>50.2577508</latitude><longitude>58.432675</longitude></city><city><cityName>Ath</cityName><country>Belgium</country><latitude>50.6302806</latitude><longitude>3.8861843</longitude></city><city><cityName>Ḩajjah</cityName><country>Yemen</country><latitude>15.7030403</latitude><longitude>43.6039301</longitude></city><city><cityName>Croix</cityName><country>France</country><latitude>47.6252225</latitude><longitude>0.277316</longitude></city><city><cityName>Heřmanův Městec</cityName><country>Czech Republic</country><latitude>49.9470702</latitude><longitude>15.6649285</longitude></city><city><cityName>Johor Bahru</cityName><country>Malaysia</country><latitude>1.5484759</latitude><longitude>103.7983752</longitude></city><city><cityName>Changchi</cityName><country>China</country><latitude>32.158809</latitude><longitude>106.666626</longitude></city><city><cityName>Nanshe</cityName><country>China</country><latitude>22.801624</latitude><longitude>113.525165</longitude></city><city><cityName>Natonin</cityName><country>Philippines</country><latitude>17.125337</latitude><longitude>121.287152</longitude></city><city><cityName>Banjar Sembunggede</cityName><country>Indonesia</country><latitude>-8.512723</latitude><longitude>115.0906448</longitude></city><city><cityName>Vysokogornyy</cityName><country>Russia</country><latitude>43.6296613</latitude><longitude>39.705727</longitude></city><city><cityName>Glubokiy</cityName><country>Russia</country><latitude>55.7557791</latitude><longitude>37.5709037</longitude></city><city><cityName>Wilków</cityName><country>Poland</country><latitude>51.1146113</latitude><longitude>17.649817</longitude></city><city><cityName>Anda</cityName><country>Philippines</country><latitude>9.7299483</latitude><longitude>124.5548427</longitude></city><city><cityName>Paris 18</cityName><country>France</country><latitude>43.4945737</latitude><longitude>5.8978018</longitude></city><city><cityName>Huaqiao</cityName><country>China</country><latitude>24.9372186</latitude><longitude>118.6422409</longitude></city><city><cityName>Rueil-Malmaison</cityName><country>France</country><latitude>48.8708001</latitude><longitude>2.166848</longitude></city><city><cityName>Uryupinsk</cityName><country>Russia</country><latitude>50.7326515</latitude><longitude>41.9594576</longitude></city><city><cityName>Neyrīz</cityName><country>Iran</country><latitude>29.1893104</latitude><longitude>54.3139277</longitude></city><city><cityName>Raman</cityName><country>Thailand</country><latitude>6.4918217</latitude><longitude>101.3885001</longitude></city><city><cityName>Cibanten</cityName><country>Indonesia</country><latitude>-7.7071613</latitude><longitude>108.4098014</longitude></city><city><cityName>Albarraque</cityName><country>Portugal</country><latitude>38.7655253</latitude><longitude>-9.3448465</longitude></city><city><cityName>La Mesa</cityName><country>Panama</country><latitude>8.1524286</latitude><longitude>-81.1802619</longitude></city><city><cityName>Masaran</cityName><country>Indonesia</country><latitude>-7.4703872</latitude><longitude>110.9387418</longitude></city><city><cityName>Magsalangi</cityName><country>Philippines</country><latitude>12.2200003</latitude><longitude>123.4869995</longitude></city><city><cityName>Sawara</cityName><country>Japan</country><latitude>33.5050373</latitude><longitude>130.3331069</longitude></city><city><cityName>Na Khu</cityName><country>Thailand</country><latitude>16.9691793</latitude><longitude>104.5311438</longitude></city><city><cityName>Kawakawa</cityName><country>New Zealand</country><latitude>-40.2458577</latitude><longitude>175.5482901</longitude></city><city><cityName>Belgrade</cityName><country>Serbia</country><latitude>44.786568</latitude><longitude>20.4489216</longitude></city><city><cityName>Requião</cityName><country>Portugal</country><latitude>41.418695</latitude><longitude>-8.4841515</longitude></city><city><cityName>Mhamid</cityName><country>Morocco</country><latitude>29.8257743</latitude><longitude>-5.7234007</longitude></city><city><cityName>Changqiao</cityName><country>China</country><latitude>31.135176</latitude><longitude>121.439288</longitude></city><city><cityName>Foso</cityName><country>Ghana</country><latitude>5.7022374</latitude><longitude>-1.2842887</longitude></city><city><cityName>Minggang</cityName><country>China</country><latitude>32.448742</latitude><longitude>114.038736</longitude></city><city><cityName>Starigrad</cityName><country>Croatia</country><latitude>44.7984547</latitude><longitude>14.8829285</longitude></city><city><cityName>Krasnokamensk</cityName><country>Russia</country><latitude>54.3141155</latitude><longitude>93.2187293</longitude></city><city><cityName>Obsza</cityName><country>Poland</country><latitude>50.3399747</latitude><longitude>22.9892667</longitude></city><city><cityName>Uppsala</cityName><country>Sweden</country><latitude>59.853262</latitude><longitude>17.6356163</longitude></city><city><cityName>Narsingdi</cityName><country>Bangladesh</country><latitude>24.134378</latitude><longitude>90.7860057</longitude></city><city><cityName>Newmarket on Fergus</cityName><country>Ireland</country><latitude>52.7604883</latitude><longitude>-8.8950821</longitude></city><city><cityName>Tilik</cityName><country>Philippines</country><latitude>13.8188768</latitude><longitude>120.1990703</longitude></city><city><cityName>Qarāwat Banī Zayd</cityName><country>Palestinian Territory</country><latitude>32.0547</latitude><longitude>35.12908</longitude></city><city><cityName>Shahe</cityName><country>China</country><latitude>36.854929</latitude><longitude>114.503339</longitude></city><city><cityName>Markaz al Marīr</cityName><country>Yemen</country><latitude>13.98178</latitude><longitude>43.59547</longitude></city><city><cityName>Varna</cityName><country>Serbia</country><latitude>44.6677818</latitude><longitude>19.6519918</longitude></city><city><cityName>Pugeran</cityName><country>Indonesia</country><latitude>-7.7037789</latitude><longitude>110.7465164</longitude></city><city><cityName>Daru Rilwan</cityName><country>Gambia</country><latitude>13.5468199</latitude><longitude>-15.9839424</longitude></city><city><cityName>Halle</cityName><country>Germany</country><latitude>51.4787653</latitude><longitude>12.0365785</longitude></city><city><cityName>Saukkola</cityName><country>Finland</country><latitude>60.3802969</latitude><longitude>23.9618656</longitude></city><city><cityName>Nova Praha</cityName><country>Ukraine</country><latitude>48.5582238</latitude><longitude>32.9001451</longitude></city><city><cityName>Pucacaca</cityName><country>Peru</country><latitude>-6.8506475</latitude><longitude>-76.3440537</longitude></city><city><cityName>Bintawan</cityName><country>Philippines</country><latitude>16.5196395</latitude><longitude>121.1798821</longitude></city><city><cityName>Balucuc</cityName><country>Philippines</country><latitude>14.9614897</latitude><longitude>120.8355408</longitude></city><city><cityName>Smoky Lake</cityName><country>Canada</country><latitude>54.1100086</latitude><longitude>-112.4800499</longitude></city><city><cityName>Kuczbork-Osada</cityName><country>Poland</country><latitude>53.0859681</latitude><longitude>20.0476701</longitude></city><city><cityName>Copa</cityName><country>Peru</country><latitude>-10.37092</latitude><longitude>-77.492203</longitude></city><city><cityName>Chigan</cityName><country>China</country><latitude>34.705306</latitude><longitude>108.438067</longitude></city><city><cityName>Caikouji</cityName><country>China</country><latitude>36.13521</latitude><longitude>107.382043</longitude></city><city><cityName>Matanza</cityName><country>Colombia</country><latitude>7.3988718</latitude><longitude>-73.052334</longitude></city><city><cityName>Sobotín</cityName><country>Czech Republic</country><latitude>50.0116973</latitude><longitude>17.0907562</longitude></city><city><cityName>Pochuta</cityName><country>Guatemala</country><latitude>14.5444432</latitude><longitude>-91.0891378</longitude></city><city><cityName>Syzran’</cityName><country>Russia</country><latitude>53.1121503</latitude><longitude>48.4211315</longitude></city><city><cityName>Likhovskoy</cityName><country>Russia</country><latitude>48.3114598</latitude><longitude>40.2585579</longitude></city><city><cityName>Sutton</cityName><country>United Kingdom</country><latitude>51.3614279</latitude><longitude>-0.193961</longitude></city><city><cityName>Kohāt</cityName><country>Pakistan</country><latitude>33.5590518</latitude><longitude>71.4915293</longitude></city><city><cityName>Isperikh</cityName><country>Bulgaria</country><latitude>43.6709677</latitude><longitude>26.7336839</longitude></city><city><cityName>Szlachta</cityName><country>Poland</country><latitude>53.7683238</latitude><longitude>18.1130662</longitude></city><city><cityName>Dimona</cityName><country>Israel</country><latitude>31.069419</latitude><longitude>35.033363</longitude></city><city><cityName>Kansas City</cityName><country>United States</country><latitude>39.0345609</latitude><longitude>-94.5521274</longitude></city><city><cityName>Bayt Līd</cityName><country>Palestinian Territory</country><latitude>32.261548</latitude><longitude>35.13028</longitude></city><city><cityName>Laka</cityName><country>Indonesia</country><latitude>-6.1560113</latitude><longitude>106.90896</longitude></city><city><cityName>Ōtake</cityName><country>Japan</country><latitude>35.9247112</latitude><longitude>139.7667822</longitude></city><city><cityName>Guajará Mirim</cityName><country>Brazil</country><latitude>-10.789321</latitude><longitude>-65.3301049</longitude></city><city><cityName>Kuhmalahti</cityName><country>Finland</country><latitude>61.5074716</latitude><longitude>24.5340167</longitude></city><city><cityName>Al Buq‘ah</cityName><country>Palestinian Territory</country><latitude>31.5344951</latitude><longitude>35.1245284</longitude></city><city><cityName>Quebrada Larga</cityName><country>Honduras</country><latitude>14.11684</latitude><longitude>-86.355797</longitude></city><city><cityName>Bom Sucesso</cityName><country>Portugal</country><latitude>38.9022136</latitude><longitude>-9.0443293</longitude></city><city><cityName>Gorjani</cityName><country>Croatia</country><latitude>45.3940354</latitude><longitude>18.3826102</longitude></city><city><cityName>Tobatí</cityName><country>Paraguay</country><latitude>-25.2630014</latitude><longitude>-57.0844094</longitude></city><city><cityName>Itbayat</cityName><country>Philippines</country><latitude>20.7236765</latitude><longitude>121.8097656</longitude></city><city><cityName>Phra Pradaeng</cityName><country>Thailand</country><latitude>13.6532561</latitude><longitude>100.5633676</longitude></city><city><cityName>Ryki</cityName><country>Poland</country><latitude>51.6256317</latitude><longitude>21.9326303</longitude></city><city><cityName>Gravelbourg</cityName><country>Canada</country><latitude>49.8756758</latitude><longitude>-106.5573172</longitude></city><city><cityName>Pingpu</cityName><country>China</country><latitude>30.677233</latitude><longitude>121.015142</longitude></city><city><cityName>Cheping</cityName><country>China</country><latitude>34.962575</latitude><longitude>105.480493</longitude></city><city><cityName>Krajan Kidul Rojopolo</cityName><country>Indonesia</country><latitude>-8.1356</latitude><longitude>113.3257</longitude></city><city><cityName>Celica</cityName><country>Ecuador</country><latitude>-4.1031257</latitude><longitude>-79.9584397</longitude></city><city><cityName>Vavozh</cityName><country>Russia</country><latitude>56.7780157</latitude><longitude>51.9234687</longitude></city><city><cityName>Alvito de São Pedro</cityName><country>Portugal</country><latitude>41.604029</latitude><longitude>-8.5920192</longitude></city><city><cityName>Arenal</cityName><country>Peru</country><latitude>-4.8905153</latitude><longitude>-81.0368211</longitude></city><city><cityName>Gantang</cityName><country>China</country><latitude>24.063883</latitude><longitude>99.200253</longitude></city><city><cityName>Arras</cityName><country>France</country><latitude>50.2837307</latitude><longitude>2.7425682</longitude></city><city><cityName>Youkounkoun</cityName><country>Guinea</country><latitude>12.5322527</latitude><longitude>-13.1221388</longitude></city><city><cityName>Irving</cityName><country>United States</country><latitude>32.8449965</latitude><longitude>-96.9799755</longitude></city><city><cityName>Broby</cityName><country>Finland</country><latitude>60.2705509</latitude><longitude>24.9883305</longitude></city><city><cityName>Ni’ao</cityName><country>China</country><latitude>23.009805</latitude><longitude>113.088924</longitude></city><city><cityName>Ananea</cityName><country>Peru</country><latitude>-14.68055</latitude><longitude>-69.534882</longitude></city><city><cityName>Xinhe</cityName><country>China</country><latitude>37.520481</latitude><longitude>115.251124</longitude></city><city><cityName>Nyandoma</cityName><country>Russia</country><latitude>61.6614104</latitude><longitude>40.2019954</longitude></city><city><cityName>Ciudad Darío</cityName><country>Nicaragua</country><latitude>12.734087</latitude><longitude>-86.1217424</longitude></city><city><cityName>Aracataca</cityName><country>Colombia</country><latitude>10.591925</latitude><longitude>-74.186103</longitude></city><city><cityName>Milanówek</cityName><country>Poland</country><latitude>52.130314</latitude><longitude>20.6599934</longitude></city><city><cityName>Synya</cityName><country>Russia</country><latitude>65.371498</latitude><longitude>58.0235821</longitude></city><city><cityName>Panjāb</cityName><country>Afghanistan</country><latitude>34.387974</latitude><longitude>67.0211404</longitude></city><city><cityName>Banjar Asahduren</cityName><country>Indonesia</country><latitude>-8.2104974</latitude><longitude>114.9671388</longitude></city><city><cityName>Fayzabad</cityName><country>Afghanistan</country><latitude>37.1017088</latitude><longitude>70.5552362</longitude></city><city><cityName>Jugezhuang</cityName><country>China</country><latitude>40.381657</latitude><longitude>116.948097</longitude></city><city><cityName>Doumé</cityName><country>Cameroon</country><latitude>4.2399992</latitude><longitude>13.4482868</longitude></city><city><cityName>Gaoxu</cityName><country>China</country><latitude>28.303163</latitude><longitude>120.614287</longitude></city><city><cityName>Kolç</cityName><country>Albania</country><latitude>41.7856407</latitude><longitude>19.6721146</longitude></city><city><cityName>Caramay</cityName><country>Philippines</country><latitude>10.1866432</latitude><longitude>119.232122</longitude></city><city><cityName>Portsmouth</cityName><country>Dominica</country><latitude>15.5561791</latitude><longitude>-61.45814</longitude></city><city><cityName>Chocianów</cityName><country>Poland</country><latitude>51.4992969</latitude><longitude>16.0446727</longitude></city><city><cityName>Głuchów</cityName><country>Poland</country><latitude>51.8123584</latitude><longitude>20.065421</longitude></city><city><cityName>Nigel</cityName><country>South Africa</country><latitude>-26.360436</latitude><longitude>28.451357</longitude></city><city><cityName>Miaoshou</cityName><country>China</country><latitude>30.266872</latitude><longitude>118.400608</longitude></city><city><cityName>Annopol</cityName><country>Poland</country><latitude>50.8853797</latitude><longitude>21.8569158</longitude></city><city><cityName>Pantaibesar</cityName><country>Indonesia</country><latitude>-8.3422456</latitude><longitude>122.9705266</longitude></city><city><cityName>Valencia</cityName><country>Venezuela</country><latitude>10.1579312</latitude><longitude>-67.9972104</longitude></city><city><cityName>Leiyang</cityName><country>China</country><latitude>26.422277</latitude><longitude>112.859759</longitude></city><city><cityName>Huanoquite</cityName><country>Peru</country><latitude>-13.68828</latitude><longitude>-72.019989</longitude></city><city><cityName>Gaoshi</cityName><country>China</country><latitude>29.184943</latitude><longitude>105.055945</longitude></city><city><cityName>Longping</cityName><country>China</country><latitude>27.5566857</latitude><longitude>107.0336505</longitude></city><city><cityName>Rabat</cityName><country>Morocco</country><latitude>33.9715904</latitude><longitude>-6.8498129</longitude></city><city><cityName>Nancheng</cityName><country>China</country><latitude>27.569678</latitude><longitude>116.63704</longitude></city><city><cityName>Erniusuokou</cityName><country>China</country><latitude>42.76618</latitude><longitude>123.15486</longitude></city><city><cityName>Piracaia</cityName><country>Brazil</country><latitude>-23.0530355</latitude><longitude>-46.3598167</longitude></city><city><cityName>Kolindrós</cityName><country>Greece</country><latitude>40.479174</latitude><longitude>22.4845811</longitude></city><city><cityName>Carvoeira</cityName><country>Portugal</country><latitude>38.9426594</latitude><longitude>-9.3964878</longitude></city><city><cityName>Muesanaik</cityName><country>Indonesia</country><latitude>-7.287363</latitude><longitude>112.755971</longitude></city><city><cityName>Chaves</cityName><country>Portugal</country><latitude>41.741781</latitude><longitude>-7.4731648</longitude></city><city><cityName>Az Ziyārah</cityName><country>Syria</country><latitude>35.6907846</latitude><longitude>36.3376199</longitude></city><city><cityName>Plewiska</cityName><country>Poland</country><latitude>52.3620932</latitude><longitude>16.8088394</longitude></city><city><cityName>Stockholm</cityName><country>Sweden</country><latitude>59.343546</latitude><longitude>18.029487</longitude></city><city><cityName>Tayāsīr</cityName><country>Palestinian Territory</country><latitude>32.339402</latitude><longitude>35.396266</longitude></city><city><cityName>Kyaka</cityName><country>Tanzania</country><latitude>-1.2545772</latitude><longitude>31.4199035</longitude></city><city><cityName>Xilópolis</cityName><country>Greece</country><latitude>40.9292486</latitude><longitude>23.1765232</longitude></city><city><cityName>Kushovë</cityName><country>Albania</country><latitude>40.7879444</latitude><longitude>20.1886551</longitude></city><city><cityName>Paranaíba</cityName><country>Brazil</country><latitude>-19.67511</latitude><longitude>-51.1913338</longitude></city><city><cityName>Agboville</cityName><country>Ivory Coast</country><latitude>5.9354963</latitude><longitude>-4.2230836</longitude></city><city><cityName>Iłowa</cityName><country>Poland</country><latitude>51.5000229</latitude><longitude>15.1996268</longitude></city><city><cityName>Agía Varvára</cityName><country>Greece</country><latitude>37.9904219</latitude><longitude>23.6583002</longitude></city><city><cityName>Fatufaun</cityName><country>Indonesia</country><latitude>-9.5517</latitude><longitude>124.3173</longitude></city><city><cityName>Fulu</cityName><country>China</country><latitude>52.3716937</latitude><longitude>4.8925949</longitude></city><city><cityName>Nice</cityName><country>France</country><latitude>43.6953508</latitude><longitude>7.2559678</longitude></city><city><cityName>Santa Cruz</cityName><country>Portugal</country><latitude>41.8033445</latitude><longitude>-7.5528376</longitude></city><city><cityName>Tartu</cityName><country>Estonia</country><latitude>58.3776252</latitude><longitude>26.7290062</longitude></city><city><cityName>Doro Oo</cityName><country>Indonesia</country><latitude>-8.6885822</latitude><longitude>118.7678981</longitude></city><city><cityName>Mostovskoy</cityName><country>Russia</country><latitude>44.3703217</latitude><longitude>40.8103225</longitude></city><city><cityName>Tver</cityName><country>Russia</country><latitude>53.543617</latitude><longitude>49.2636336</longitude></city><city><cityName>Tahilt</cityName><country>Mongolia</country><latitude>45.333333</latitude><longitude>96.65</longitude></city><city><cityName>Vineuil</cityName><country>France</country><latitude>47.581201</latitude><longitude>1.375111</longitude></city><city><cityName>Loimaan Kunta</cityName><country>Finland</country><latitude>60.955867</latitude><longitude>22.6282967</longitude></city><city><cityName>Depapre</cityName><country>Indonesia</country><latitude>-2.4655425</latitude><longitude>140.4101474</longitude></city><city><cityName>Panjir</cityName><country>Indonesia</country><latitude>-6.2278972</latitude><longitude>106.7045995</longitude></city><city><cityName>Limboto</cityName><country>Indonesia</country><latitude>0.6877958</latitude><longitude>122.9775675</longitude></city><city><cityName>San Antonio Ilotenango</cityName><country>Guatemala</country><latitude>15.0541658</latitude><longitude>-91.229784</longitude></city><city><cityName>Mikhaylovsk</cityName><country>Russia</country><latitude>56.4428126</latitude><longitude>59.129251</longitude></city><city><cityName>Padre Bernardo</cityName><country>Brazil</country><latitude>-15.158624</latitude><longitude>-48.2802925</longitude></city><city><cityName>Qā’en</cityName><country>Iran</country><latitude>33.7226749</latitude><longitude>59.1788204</longitude></city><city><cityName>Danilov</cityName><country>Russia</country><latitude>58.2031055</latitude><longitude>40.1130016</longitude></city><city><cityName>Ketian</cityName><country>China</country><latitude>25.578207</latitude><longitude>106.021015</longitude></city><city><cityName>Leramatang</cityName><country>Indonesia</country><latitude>-8.3647</latitude><longitude>123.5718</longitude></city><city><cityName>Daliuhao</cityName><country>China</country><latitude>41.326318</latitude><longitude>109.327018</longitude></city><city><cityName>Stockholm</cityName><country>Sweden</country><latitude>58.909448</latitude><longitude>17.9555203</longitude></city><city><cityName>São Martinho</cityName><country>Portugal</country><latitude>41.3627611</latitude><longitude>-8.456321</longitude></city><city><cityName>Chuanshan</cityName><country>China</country><latitude>30.525475</latitude><longitude>105.568297</longitude></city><city><cityName>Kotayk’</cityName><country>Armenia</country><latitude>40.5410214</latitude><longitude>44.7690148</longitude></city><city><cityName>Imsida</cityName><country>Malta</country><latitude>35.8925</latitude><longitude>14.48278</longitude></city><city><cityName>Aíyira</cityName><country>Greece</country><latitude>38.1481953</latitude><longitude>22.3558193</longitude></city><city><cityName>Haiyan</cityName><country>China</country><latitude>30.526435</latitude><longitude>120.946263</longitude></city><city><cityName>Shuangxikou</cityName><country>China</country><latitude>28.944692</latitude><longitude>119.314016</longitude></city><city><cityName>Jalal-Abad</cityName><country>Kyrgyzstan</country><latitude>40.9331541</latitude><longitude>72.9814877</longitude></city><city><cityName>Chengtou</cityName><country>China</country><latitude>30.572815</latitude><longitude>104.066801</longitude></city><city><cityName>Cibodas</cityName><country>Indonesia</country><latitude>-6.1989828</latitude><longitude>106.5996595</longitude></city><city><cityName>Tebluru</cityName><country>Indonesia</country><latitude>-6.939153</latitude><longitude>112.3188749</longitude></city><city><cityName>Huangmu</cityName><country>China</country><latitude>23.106401</latitude><longitude>113.459749</longitude></city><city><cityName>Fastovetskaya</cityName><country>Russia</country><latitude>45.9184314</latitude><longitude>40.1587542</longitude></city><city><cityName>Kåge</cityName><country>Sweden</country><latitude>64.8962892</latitude><longitude>21.1114939</longitude></city><city><cityName>Pakong</cityName><country>Indonesia</country><latitude>-7.033304</latitude><longitude>113.5609459</longitude></city><city><cityName>Castilla</cityName><country>Philippines</country><latitude>14.6087807</latitude><longitude>121.0334173</longitude></city><city><cityName>Yuanshanzi</cityName><country>China</country><latitude>37.87059</latitude><longitude>112.548879</longitude></city><city><cityName>Liboran</cityName><country>Philippines</country><latitude>8.3520574</latitude><longitude>124.6503061</longitude></city><city><cityName>Matatiele</cityName><country>South Africa</country><latitude>-30.2932904</latitude><longitude>28.7693554</longitude></city><city><cityName>Ilek</cityName><country>Russia</country><latitude>59.954793</latitude><longitude>30.2145439</longitude></city><city><cityName>Linshanhe</cityName><country>China</country><latitude>30.740553</latitude><longitude>114.893657</longitude></city><city><cityName>Tianxingchang</cityName><country>China</country><latitude>31.688228</latitude><longitude>105.570955</longitude></city><city><cityName>Philadelphia</cityName><country>United States</country><latitude>39.95</latitude><longitude>-75.16</longitude></city><city><cityName>Belung Satu</cityName><country>Indonesia</country><latitude>-8.0372299</latitude><longitude>112.76878</longitude></city><city><cityName>Sewon</cityName><country>Indonesia</country><latitude>-7.8529367</latitude><longitude>110.3606701</longitude></city><city><cityName>Latung</cityName><country>Philippines</country><latitude>13.3010762</latitude><longitude>121.2195627</longitude></city><city><cityName>Los Dos Caminos</cityName><country>Venezuela</country><latitude>10.4980067</latitude><longitude>-66.8335096</longitude></city><city><cityName>Westport</cityName><country>New Zealand</country><latitude>-41.748446</latitude><longitude>171.596443</longitude></city><city><cityName>Troyan</cityName><country>Bulgaria</country><latitude>42.8903751</latitude><longitude>24.7129702</longitude></city><city><cityName>Zhangdu</cityName><country>China</country><latitude>33.750879</latitude><longitude>119.193333</longitude></city><city><cityName>Mufumbwe</cityName><country>Zambia</country><latitude>-13.683333</latitude><longitude>24.8</longitude></city><city><cityName>La Fortuna</cityName><country>Philippines</country><latitude>14.5732425</latitude><longitude>121.020976</longitude></city><city><cityName>Koni-Djodjo</cityName><country>Comoros</country><latitude>-12.2324162</latitude><longitude>44.4806961</longitude></city><city><cityName>Khon Kaen</cityName><country>Thailand</country><latitude>16.4656784</latitude><longitude>102.7834876</longitude></city><city><cityName>Gamut</cityName><country>Philippines</country><latitude>9.000538</latitude><longitude>126.159227</longitude></city><city><cityName>Pendawanbaru</cityName><country>Indonesia</country><latitude>-2.5303</latitude><longitude>115.2418</longitude></city><city><cityName>Baltasar Brum</cityName><country>Uruguay</country><latitude>-30.7190522</latitude><longitude>-57.3298733</longitude></city><city><cityName>Fengcheng</cityName><country>China</country><latitude>28.159141</latitude><longitude>115.771093</longitude></city><city><cityName>Zverevo</cityName><country>Russia</country><latitude>48.0158297</latitude><longitude>40.0785154</longitude></city><city><cityName>Quilmes</cityName><country>Argentina</country><latitude>-34.7682125</latitude><longitude>-58.3613645</longitude></city><city><cityName>Gaspra</cityName><country>Ukraine</country><latitude>44.4353271</latitude><longitude>34.1121629</longitude></city><city><cityName>Zango</cityName><country>Nigeria</country><latitude>12.8964041</latitude><longitude>8.5281613</longitude></city><city><cityName>Zhaobei</cityName><country>China</country><latitude>27.223071</latitude><longitude>103.7893123</longitude></city><city><cityName>Ilebo</cityName><country>Democratic Republic of the Congo</country><latitude>-4.3253802</latitude><longitude>20.5870955</longitude></city><city><cityName>Itapuranga</cityName><country>Brazil</country><latitude>-15.5544752</latitude><longitude>-49.9417277</longitude></city><city><cityName>Limatambo</cityName><country>Peru</country><latitude>-13.48804</latitude><longitude>-72.4493789</longitude></city><city><cityName>Los Mangos</cityName><country>Mexico</country><latitude>20.543509</latitude><longitude>-97.4252917</longitude></city><city><cityName>Batatais</cityName><country>Brazil</country><latitude>-20.8933441</latitude><longitude>-47.5925952</longitude></city><city><cityName>Kutampi</cityName><country>Indonesia</country><latitude>-8.7176937</latitude><longitude>115.5625434</longitude></city><city><cityName>Miaoli</cityName><country>Taiwan</country><latitude>24.560159</latitude><longitude>120.8214265</longitude></city><city><cityName>Pontevedra</cityName><country>Spain</country><latitude>42.4423768</latitude><longitude>-8.6463086</longitude></city><city><cityName>Ostrzeszów</cityName><country>Poland</country><latitude>51.42582</latitude><longitude>17.93378</longitude></city><city><cityName>Banyulegi</cityName><country>Indonesia</country><latitude>-7.316501</latitude><longitude>112.4455374</longitude></city><city><cityName>Sotomayor</cityName><country>Bolivia</country><latitude>-19.333333</latitude><longitude>-65</longitude></city><city><cityName>Graz</cityName><country>Austria</country><latitude>47.0505635</latitude><longitude>15.4828066</longitude></city><city><cityName>Ligonggang</cityName><country>China</country><latitude>29.091586</latitude><longitude>111.208469</longitude></city><city><cityName>Czarne</cityName><country>Poland</country><latitude>53.6808257</latitude><longitude>16.9312789</longitude></city><city><cityName>Olympia</cityName><country>United States</country><latitude>47.0378741</latitude><longitude>-122.9006951</longitude></city><city><cityName>Pinamalayan</cityName><country>Philippines</country><latitude>12.9978739</latitude><longitude>121.4181928</longitude></city><city><cityName>Tsagaan-Olom</cityName><country>Mongolia</country><latitude>46.71327</latitude><longitude>96.52588</longitude></city><city><cityName>Aiximan</cityName><country>China</country><latitude>39.244385</latitude><longitude>76.499773</longitude></city><city><cityName>Luanshya</cityName><country>Zambia</country><latitude>-13.1435017</latitude><longitude>28.4163103</longitude></city><city><cityName>Nanmu</cityName><country>China</country><latitude>22.495591</latitude><longitude>113.297919</longitude></city><city><cityName>Bitanjuan</cityName><country>Philippines</country><latitude>10.5955</latitude><longitude>124.7663</longitude></city><city><cityName>Sendangkemulian</cityName><country>Indonesia</country><latitude>-8.0972</latitude><longitude>111.8163</longitude></city><city><cityName>San Jorge</cityName><country>Argentina</country><latitude>-34.6098701</latitude><longitude>-58.5668231</longitude></city><city><cityName>Jianchang</cityName><country>China</country><latitude>40.824367</latitude><longitude>119.837124</longitude></city><city><cityName>Lurut</cityName><country>Indonesia</country><latitude>-6.275266</latitude><longitude>106.7246947</longitude></city><city><cityName>Ýdra</cityName><country>Greece</country><latitude>37.3287894</latitude><longitude>23.4716567</longitude></city><city><cityName>Yangiqo‘rg‘on</cityName><country>Uzbekistan</country><latitude>39.9320083</latitude><longitude>66.6503928</longitude></city><city><cityName>Tarkastad</cityName><country>South Africa</country><latitude>-32.0078739</latitude><longitude>26.2718021</longitude></city><city><cityName>Al Maḩjal</cityName><country>Yemen</country><latitude>16.71169</latitude><longitude>44.84769</longitude></city><city><cityName>Gambaru</cityName><country>Nigeria</country><latitude>12.3730419</latitude><longitude>14.2076222</longitude></city><city><cityName>Xiaoyan</cityName><country>China</country><latitude>28.395681</latitude><longitude>111.496763</longitude></city><city><cityName>Diaopu</cityName><country>China</country><latitude>25.8333333</latitude><longitude>123.5833333</longitude></city><city><cityName>Nevesinje</cityName><country>Bosnia and Herzegovina</country><latitude>43.2574658</latitude><longitude>18.1123652</longitude></city><city><cityName>Dhalie</cityName><country>Yemen</country><latitude>13.7032564</latitude><longitude>44.7334536</longitude></city><city><cityName>Dasht-e Lati</cityName><country>Iran</country><latitude>32.3295438</latitude><longitude>49.0943433</longitude></city><city><cityName>Lymanske</cityName><country>Ukraine</country><latitude>46.6794431</latitude><longitude>29.974368</longitude></city><city><cityName>Jiangzhang</cityName><country>China</country><latitude>29.482105</latitude><longitude>86.228141</longitude></city><city><cityName>Skole</cityName><country>Ukraine</country><latitude>49.0401779</latitude><longitude>23.5129163</longitude></city><city><cityName>Leksand</cityName><country>Sweden</country><latitude>60.6858505</latitude><longitude>15.0446489</longitude></city><city><cityName>Skibbereen</cityName><country>Ireland</country><latitude>51.549106</latitude><longitude>-9.268589</longitude></city><city><cityName>Lelydorp</cityName><country>Suriname</country><latitude>5.6979328</latitude><longitude>-55.220397</longitude></city><city><cityName>Brloh</cityName><country>Czech Republic</country><latitude>50.0005878</latitude><longitude>15.5572849</longitude></city><city><cityName>Dengjiang</cityName><country>China</country><latitude>21.857958</latitude><longitude>111.982232</longitude></city><city><cityName>Ngembak</cityName><country>Indonesia</country><latitude>-7.0987285</latitude><longitude>110.8880753</longitude></city><city><cityName>Cemplang</cityName><country>Indonesia</country><latitude>-6.57956</latitude><longitude>106.6438673</longitude></city><city><cityName>Złoty Stok</cityName><country>Poland</country><latitude>50.44459</latitude><longitude>16.87578</longitude></city><city><cityName>Ban Chalong</cityName><country>Thailand</country><latitude>13.6153077</latitude><longitude>100.7434078</longitude></city><city><cityName>Erdaocha</cityName><country>China</country><latitude>42.871502</latitude><longitude>127.501873</longitude></city><city><cityName>Ząbkowice Śląskie</cityName><country>Poland</country><latitude>50.5888258</latitude><longitude>16.8098022</longitude></city><city><cityName>Drajak</cityName><country>Indonesia</country><latitude>-6.57018</latitude><longitude>111.03254</longitude></city><city><cityName>Huangbu</cityName><country>China</country><latitude>23.124134</latitude><longitude>115.138892</longitude></city><city><cityName>Hartola</cityName><country>Finland</country><latitude>61.5792581</latitude><longitude>26.0188652</long